[{"name":"Ajdovščina","address":"Goriška cesta 24, Ajdovščina, Slovenia","description":"Ob poštni poslovalnici","lat":46.48476130449572,"lng":16.56996635936489},{"name":"Benedikt","address":"Čolnikov trg 9, Benedikt, Slovenia","description":"Ob poštni poslovalnici","lat":45.779939658361585,"lng":15.309041222249107},{"name":"Bled","address":"Ljubljanska cesta 10, Bled, Slovenia","description":"Ob poštni poslovalnici","lat":46.60880427112511,"lng":16.18886219132968},{"name":"Bohinjska Bistrica","address":"Trg svobode 2 C, Bohinjska Bistrica, Slovenia","description":"Ob poštni poslovalnici","lat":46.47407276694958,"lng":13.537326174229117},{"name":"Borovnica","address":"Molkov trg 12, Borovnica, Slovenia","description":"Ob poštni poslovalnici","lat":46.59439145775855,"lng":15.209765893229383},{"name":"Bresternica","address":"Obrobna ulica 1, Bresternica, Slovenia","description":"Ob poštni poslovalnici","lat":46.76218842720113,"lng":13.791418110055691},{"name":"Brezovica pri Ljubljani","address":"Podpeška cesta 20, Brezovica pri Ljubljani, Slovenia","description":"Ob poštni poslovalnici","lat":46.86282984595433,"lng":13.516466900613693},{"name":"Brežice","address":"Ulica stare pravde 34, Brežice, Slovenia","description":"Ob poštni poslovalnici","lat":45.504276823749834,"lng":13.599482569333459},{"name":"Celje","address":"Krekov trg 9, Celje, Slovenia","description":"Ob poštni poslovalnici","lat":46.03670009222642,"lng":16.185490446344403},{"name":"Črenšovci","address":"Ulica Prekmurske čete 14, Črenšovci, Slovenia","description":"Ob poštni poslovalnici","lat":46.2626557961527,"lng":14.608439669751382},{"name":"Črna na Koroškem","address":"Center 16, Črna na Koroškem, Slovenia","description":"Ob poštni poslovalnici","lat":45.78747287498785,"lng":13.804214104204764},{"name":"Črnomelj","address":"Kolodvorska cesta 30 A, Črnomelj, Slovenia","description":"Ob poštni poslovalnici","lat":45.79064489569015,"lng":14.823550426179011},{"name":"Dob","address":"Krtina 144, Dob, Slovenia","description":"Bar Rožmarinka","lat":46.058651185806724,"lng":13.997637930120572},{"name":"Dobova","address":"Ulica bratov Gerjovičev 52, Dobova, Slovenia","description":"Ob nekdanji poštni poslovalnici","lat":46.32131821383759,"lng":13.410411108289804},{"name":"Dravograd","address":"Trg 4. julija 1, Dravograd, Slovenia","description":"Ob poštni poslovalnici","lat":46.43334418189566,"lng":15.557572239657796},{"name":"Gorišnica","address":"Gorišnica 79, Gorišnica, Slovenia","description":"Ob poštni poslovalnici","lat":45.51288839183763,"lng":16.424458782693524},{"name":"Gornja Radgona","address":"Cesta na Stadion 1, Gornja Radgona, Slovenia","description":"Ob poštni poslovalnici","lat":46.05531493587664,"lng":15.589591267317552},{"name":"Gornji Grad","address":"Podsmrečje 20, Gornji Grad, Slovenia","description":"Mercator","lat":46.414597769719904,"lng":15.374985858616737},{"name":"Gornji Grad","address":"Attemsov trg 8, Gornji Grad, Slovenia","description":"Poslovni objekt","lat":46.262056188974086,"lng":14.580306547265128},{"name":"Grosuplje","address":"Partizanska cesta 7, Grosuplje, Slovenia","description":"Ob poštni poslovalnici","lat":45.683692406490174,"lng":13.388181229111716},{"name":"Idrija","address":"Vodnikova ulica 1, Idrija, Slovenia","description":"Ob poštni poslovalnici","lat":45.44733514664882,"lng":16.04034639314879},{"name":"Ivančna Gorica","address":"Ploščad Osvobodilne fronte 4, Ivančna Gorica, Slovenia","description":"Ob poštni poslovalnici","lat":46.510129158770624,"lng":16.40685889903704},{"name":"Ivanjkovci","address":"Ivanjkovci 9 B, Ivanjkovci, Slovenia","description":"Ob poštni poslovalnici","lat":46.63890935605808,"lng":14.996885320458983},{"name":"Izola/Isola","address":"Cankarjev drevored 1, Izola/Isola, Slovenia","description":"Ob poštni poslovalnici","lat":46.29111386887106,"lng":14.05330584889224},{"name":"Jesenice","address":"Cesta Cirila Tavčarja 8, Jesenice, Slovenia","description":"Ob poštni poslovalnici","lat":45.854753253656675,"lng":15.593647878191499},{"name":"Jesenice na Dolenjskem","address":"Jesenice 9, Jesenice na Dolenjskem, Slovenia","description":"Ob poštni poslovalnici","lat":46.042394947191525,"lng":16.48607531692331},{"name":"Kamnica","address":"Cesta v Rošpoh 18, Kamnica, Slovenia","description":"Ob poštni poslovalnici","lat":46.488146297124175,"lng":14.406020595704415},{"name":"Kamnik","address":"Ljubljanska cesta 14 A, Kamnik, Slovenia","description":"Ob poštni poslovalnici","lat":46.83743392898215,"lng":14.901570084136619},{"name":"Kidričevo","address":"Kopališka ulica 2, Kidričevo, Slovenia","description":"Ob poštni poslovalnici","lat":45.768360129125334,"lng":15.594235196872871},{"name":"Kobilje","address":"Kobilje 30, Kobilje, Slovenia","description":"Občina Kobilje","lat":45.729150295537835,"lng":13.666906110960216},{"name":"Kočevje","address":"Ljubljanska cesta 23, Kočevje, Slovenia","description":"Ob poštni poslovalnici","lat":46.24944456468232,"lng":14.998545820062247},{"name":"Komenda","address":"Glavarjeva cesta 39, Komenda, Slovenia","description":"Ob poštni poslovalnici","lat":45.631885872859336,"lng":15.121815771323812},{"name":"Koper","address":"Kolodvorska cesta 9, Koper, Slovenia","description":"Ob poštni poslovalnici","lat":45.79474800222498,"lng":14.226902628423268},{"name":"Kranj","address":"Dražgoška ulica 8, Kranj, Slovenia","description":"Ob poštni poslovalnici","lat":46.02355948580916,"lng":13.854244762800723},{"name":"Kranj","address":"Škofjeloška cesta 17, Kranj, Slovenia","description":"Ob poštni poslovalnici","lat":46.649320483450296,"lng":14.297833636980865},{"name":"Kranj","address":"Jezerska cesta 41, Kranj, Slovenia","description":"Ob poštni poslovalnici","lat":46.06968060366908,"lng":15.736815966603857},{"name":"Kranj","address":"Ulica Lojzeta Hrovata 2, Kranj, Slovenia","description":"Ob poštni poslovalnici","lat":45.4262340067764,"lng":13.879075986175824},{"name":"Kranjska Gora","address":"Borovška cesta 92, Kranjska Gora, Slovenia","description":"Ob poštni poslovalnici","lat":46.871966001168886,"lng":16.409478072129982},{"name":"Krško","address":"Trg Matije Gubca 1, Krško, Slovenia","description":"Ob poštni poslovalnici","lat":46.67611572748887,"lng":15.805957484081436},{"name":"Lenart v Slovenskih goricah","address":"Partizanska cesta 3, Lenart v Slovenskih goricah, Slovenia","description":"Ob poštni poslovalnici","lat":45.5047517753765,"lng":14.907427355836143},{"name":"Lendava/Lendva","address":"Trg ljudske pravice 7, Lendava/Lendva, Slovenia","description":"Ob poštni poslovalnici","lat":45.661827835691696,"lng":16.472609383385382},{"name":"Lesce","address":"Alpska cesta 37 B, Lesce, Slovenia","description":"Ob poštni poslovalnici","lat":46.32221802429893,"lng":15.662783335385116},{"name":"Ljubljana","address":"Poljanski nasip 30, Ljubljana, Slovenia","description":"Ob poštni poslovalnici","lat":45.52223840761862,"lng":14.863799282953345},{"name":"Ljubljana","address":"Pražakova ulica 3, Ljubljana, Slovenia","description":"Ob poštni poslovalnici","lat":45.69864209015794,"lng":15.153521122548522},{"name":"Ljubljana","address":"Zaloška cesta 57, Ljubljana, Slovenia","description":"Ob poštni poslovalnici","lat":46.680414444750696,"lng":13.635505059337849},{"name":"Ljubljana","address":"Dunajska cesta 141, Ljubljana, Slovenia","description":"Ob poštni poslovalnici","lat":46.40247109187432,"lng":16.33380607514723},{"name":"Ljubljana","address":"Riharjeva ulica 38, Ljubljana, Slovenia","description":"Ob poštni poslovalnici","lat":46.132330866210495,"lng":14.858307136006665},{"name":"Ljubljana","address":"Vodnikova cesta 235, Ljubljana, Slovenia","description":"Ob poštni poslovalnici","lat":46.2029529915748,"lng":16.156145847720524},{"name":"Ljubljana","address":"Resljeva cesta 14, Ljubljana, Slovenia","description":"Ob poštni poslovalnici","lat":46.64232458674438,"lng":15.709259547683622},{"name":"Ljubljana","address":"Letališka cesta 12, Ljubljana, Slovenia","description":"1A Avto Letališka","lat":46.5653902740787,"lng":15.487671260995885},{"name":"Ljubljana","address":"Tacenska cesta 94, Ljubljana, Slovenia","description":"As Mlakar Tacen Lj.","lat":46.3710358232367,"lng":14.23510567920221},{"name":"Ljubljana","address":"Hrvaška ulica 8, Ljubljana, Slovenia","description":"Center Desetka","lat":45.407779387616124,"lng":13.830374601546355},{"name":"Ljubljana","address":"Ob železnici 22, Ljubljana, Slovenia","description":"Direct4me HQ","lat":46.570464599148394,"lng":15.912538891136236},{"name":"Ljubljana","address":"Hranilniška ulica 1, Ljubljana, Slovenia","description":"Gostilna Raubar","lat":45.8676729572687,"lng":13.378280237302242},{"name":"Ljubljana","address":"Dunajska cesta 145, Ljubljana, Slovenia","description":"Gostilnica Vinka","lat":46.19903261246319,"lng":14.499662243511542},{"name":"Ljubljana","address":"Litijska cesta 140, Ljubljana, Slovenia","description":"Hayat Market Litijska","lat":45.86355140093343,"lng":13.983290710796863},{"name":"Ljubljana","address":"Tehnološki park 22a, Ljubljana, Slovenia","description":"Tehnološki park Ljubljana","lat":45.63717718700204,"lng":14.506886651621329},{"name":"Ljubljana","address":"Tržaška cesta 89, Ljubljana, Slovenia","description":"Vulkanizerstvo Pečar Tržaška","lat":45.42981481104993,"lng":14.055847651031428},{"name":"Ljubljana","address":"Cesta dveh cesarjev 73, Ljubljana, Slovenia","description":"Petrol Barje - jug","lat":45.62101567693626,"lng":14.415211990252786},{"name":"Ljubljana","address":"Cesta dveh cesarjev 71, Ljubljana, Slovenia","description":"Petrol Barje - sever","lat":45.85870481390294,"lng":13.596563943958477},{"name":"Ljubljana - Črnuče","address":"Dunajska cesta 361, Ljubljana - Črnuče, Slovenia","description":"Ob poštni poslovalnici","lat":46.05800559645641,"lng":14.135167346256297},{"name":"Ljubljana - Polje","address":"Zadobrovška cesta 14, Ljubljana - Polje, Slovenia","description":"Ob poštni poslovalnici","lat":46.09604058784194,"lng":13.740630914660276},{"name":"Ljubljana - Šentvid","address":"Prušnikova ulica 2, Ljubljana - Šentvid, Slovenia","description":"Ob poštni poslovalnici","lat":46.04428725263434,"lng":15.830645837001299},{"name":"Makole","address":"Makole 37, Makole, Slovenia","description":"Ob poštni poslovalnici","lat":46.11060252993889,"lng":15.798071327312327},{"name":"Malečnik","address":"Malečnik 56, Malečnik, Slovenia","description":"Ob poštni poslovalnici","lat":46.66853255186347,"lng":13.82844864026817},{"name":"Maribor","address":"Dominkuševa ulica 4, Maribor, Slovenia","description":"Mala tržnica","lat":45.589321319190645,"lng":15.389805292522121},{"name":"Maribor","address":"Istrska ulica 49, Maribor, Slovenia","description":"Ob poštni poslovalnici","lat":45.561635504192,"lng":14.596562593550033},{"name":"Maribor","address":"Gosposvetska cesta 83, Maribor, Slovenia","description":"Studentski domovi Maribor DOM 7","lat":46.80212846164804,"lng":13.412014948804426},{"name":"Maribor","address":"Gosposvetska cesta 84, Maribor, Slovenia","description":"PC Meltal parkirišče","lat":46.63546598306595,"lng":13.502025296033844},{"name":"Maribor","address":"Pohorska ulica 21a, Maribor, Slovenia","description":"Tržnica Radvanje","lat":45.83140046215107,"lng":16.30943800622682},{"name":"Maribor","address":"Prvomajska ulica 35, Maribor, Slovenia","description":"Tržnica Tezno","lat":46.04717096916444,"lng":13.552690575246698},{"name":"Maribor","address":"Radvanjska cesta 63, Maribor, Slovenia","description":"MČ Nova vas","lat":46.5713757760937,"lng":15.401990692414014},{"name":"Maribor","address":"Razlagova ulica 3, Maribor, Slovenia","description":"MB Rakušev trg","lat":46.628143597487934,"lng":15.186288332284752},{"name":"Maribor","address":"Šarhova ulica 53, Maribor, Slovenia","description":"MČ Studenci","lat":45.472749990029534,"lng":15.488514373706952},{"name":"Maribor","address":"Šarhova ulica 59 A, Maribor, Slovenia","description":"Ob poštni poslovalnici","lat":46.8287921165289,"lng":16.194879941074127},{"name":"Maribor","address":"Tyrševa ulica 23, Maribor, Slovenia","description":"Študentski domovi Maribor DOM 1","lat":46.436851857708305,"lng":16.44645989106723},{"name":"Maribor","address":"Ulica heroja Šlandra 15, Maribor, Slovenia","description":"MOM Ulica heroja Šlandra","lat":45.65162791017894,"lng":14.663142122204029},{"name":"Mengeš","address":"Trdinov trg 8 A, Mengeš, Slovenia","description":"Ob poštni poslovalnici","lat":45.552379260204894,"lng":15.55696871369165},{"name":"Metlika","address":"Naselje Borisa Kidriča 2, Metlika, Slovenia","description":"Ob poštni poslovalnici","lat":46.575952842363535,"lng":16.55487021243271},{"name":"Mirna","address":"Cesta na Fužine 3, Mirna, Slovenia","description":"Ob poštni poslovalnici","lat":45.515621147987694,"lng":15.311078111259308},{"name":"Moravče","address":"Vegova ulica 1, Moravče, Slovenia","description":"Ob poštni poslovalnici","lat":45.61756379758701,"lng":14.303672466480709},{"name":"Mozirje","address":"Savinjska cesta 3, Mozirje, Slovenia","description":"Ob poštni poslovalnici","lat":45.582417642142104,"lng":14.894674038222545},{"name":"Murska Sobota","address":"Trg Zmage 6, Murska Sobota, Slovenia","description":"Ob poštni poslovalnici","lat":45.416403010148684,"lng":14.851035129707245},{"name":"Murska Sobota","address":"Ulica Štefana Kovača 43, Murska Sobota, Slovenia","description":"Maximus Murska sobota","lat":45.766808300737424,"lng":13.607333524583803},{"name":"Muta","address":"Glavni trg 31, Muta, Slovenia","description":"Ob poštni poslovalnici","lat":46.10397031114843,"lng":16.127769574807896},{"name":"Naklo","address":"Glavna cesta 24, Naklo, Slovenia","description":"Ob poštni poslovalnici","lat":46.727393503624384,"lng":15.943342847035739},{"name":"Nova Gorica","address":"Kidričeva ulica 19, Nova Gorica, Slovenia","description":"Ob poštni poslovalnici","lat":45.67057457923457,"lng":13.393309130468623},{"name":"Nova Gorica","address":"Industrijska cesta 9, Nova Gorica, Slovenia","description":"Ob poštni poslovalnici","lat":45.86788324786317,"lng":16.4519486121807},{"name":"Novo mesto","address":"Ulica Slavka Gruma 7, Novo mesto, Slovenia","description":"Ob poštni poslovalnici","lat":46.63013878294183,"lng":14.331407983825837},{"name":"Novo mesto","address":"Novi trg 7, Novo mesto, Slovenia","description":"Ob poštni poslovalnici","lat":46.123130907121,"lng":13.898292185882184},{"name":"Ormož","address":"Poštna ulica 2, Ormož, Slovenia","description":"Ob poštni poslovalnici","lat":45.4672845742063,"lng":14.05049689337211},{"name":"Petrovci","address":"Gornji Petrovci 40 E, Petrovci, Slovenia","description":"Ob poštni poslovalnici","lat":46.7061501562647,"lng":14.46649738684585},{"name":"Polzela","address":"Malteška cesta 38, Polzela, Slovenia","description":"Ob poštni poslovalnici","lat":45.64780890361491,"lng":13.952287566279141},{"name":"Postojna","address":"Ulica 1. maja 2 A, Postojna, Slovenia","description":"Ob poštni poslovalnici","lat":45.75518613375462,"lng":16.582026929933786},{"name":"Preddvor","address":"Šiška 1, Preddvor, Slovenia","description":"Ob poštni poslovalnici","lat":46.87942733810761,"lng":16.31317079710175},{"name":"Prevalje","address":"Trg 32 A, Prevalje, Slovenia","description":"Ob poštni poslovalnici","lat":46.34286203846364,"lng":16.481691952574224},{"name":"Ptuj","address":"Mariborska Cesta 19, Ptuj, Slovenia","description":"Ob poštni poslovalnici","lat":46.824794838359345,"lng":14.069537536454481},{"name":"Rače","address":"Ljubljanska cesta 14, Rače, Slovenia","description":"Ob poštni poslovalnici","lat":45.69174602380965,"lng":15.126593102067236},{"name":"Radenci","address":"Panonska cesta 5, Radenci, Slovenia","description":"Ob poštni poslovalnici","lat":46.59332737813354,"lng":15.810358353095552},{"name":"Ravne na Koroškem","address":"Trg svobode 19, Ravne na Koroškem, Slovenia","description":"Ob poštni poslovalnici","lat":46.18238303105223,"lng":15.035791938559955},{"name":"Ribnica","address":"Kolodvorska ulica 2, Ribnica, Slovenia","description":"Ob poštni poslovalnici","lat":46.07223313937302,"lng":13.558188368862398},{"name":"Selnica ob Dravi","address":"Slovenski trg 4, Selnica ob Dravi, Slovenia","description":"Ob poštni poslovalnici","lat":45.840909681276344,"lng":14.016655801845758},{"name":"Sevnica","address":"Trg svobode 9, Sevnica, Slovenia","description":"Ob poštni poslovalnici","lat":46.50042534733623,"lng":13.863223207468245},{"name":"Sežana","address":"Partizanska cesta 48 A, Sežana, Slovenia","description":"Ob poštni poslovalnici","lat":45.45382024887943,"lng":15.08158843919003},{"name":"Slovenj Gradec","address":"Kidričeva ulica 3a, Slovenj Gradec, Slovenia","description":"Kivi Com Slovenj Gradec","lat":46.64162424118836,"lng":15.744112330470667},{"name":"Spodnji Duplek","address":"Cesta k Dravi 5, Spodnji Duplek, Slovenia","description":"Ob poštni poslovalnici","lat":46.27727572136177,"lng":15.37025357957772},{"name":"Šempeter pri Gorici","address":"Vrtojbenska cesta 19 C, Šempeter pri Gorici, Slovenia","description":"Ob poštni poslovalnici","lat":45.474968191557466,"lng":16.48394238553917},{"name":"Šenčur","address":"Gasilska cesta 2 A, Šenčur, Slovenia","description":"Ob poštni poslovalnici","lat":46.48754681555444,"lng":16.241417398508844},{"name":"Šentjernej","address":"Prvomajska cesta 3, Šentjernej, Slovenia","description":"Ob poštni poslovalnici","lat":46.4928398449238,"lng":15.730138502342573},{"name":"Šentjur","address":"Mestni trg 5a, Šentjur, Slovenia","description":"Ob poštni poslovalnici","lat":45.55775673139697,"lng":14.859182921556387},{"name":"Škofja Loka","address":"Kapucinski trg 14, Škofja Loka, Slovenia","description":"Ob poštni poslovalnici","lat":45.97637632923208,"lng":15.25298359566434},{"name":"Šmarje pri Jelšah","address":"Aškerčev trg 26, Šmarje pri Jelšah, Slovenia","description":"Ob poštni poslovalnici","lat":45.6440381234703,"lng":14.674653996929763},{"name":"Tolmin","address":"Trg maršala Tita 10, Tolmin, Slovenia","description":"Ob poštni poslovalnici","lat":46.0092673855158,"lng":14.38904306474833},{"name":"Trbovlje","address":"Trg revolucije 27, Trbovlje, Slovenia","description":"Ob poštni poslovalnici","lat":45.82154293408173,"lng":14.695966819921466},{"name":"Trbovlje","address":"Trg Franca Fakina 4, Trbovlje, Slovenia","description":"Ob poštni poslovalnici","lat":46.489958815045036,"lng":15.932984798628848},{"name":"Trebnje","address":"Goliev trg 11, Trebnje, Slovenia","description":"Ob poštni poslovalnici","lat":46.627443471545384,"lng":15.547142216476459},{"name":"Tržič","address":"Predilniška cesta 10, Tržič, Slovenia","description":"Ob poštni poslovalnici","lat":46.51126403327478,"lng":14.744119221801053},{"name":"Velenje","address":"Kidričeva cesta 2a, Velenje, Slovenia","description":"Ob poštni poslovalnici","lat":46.84413691348594,"lng":13.739358314925198},{"name":"Vrhnika","address":"Poštna ulica 2, Vrhnika, Slovenia","description":"Ob poštni poslovalnici","lat":46.69464894157904,"lng":16.502440277276204},{"name":"Vrhnika","address":"Tržaška cesta 32, Vrhnika, Slovenia","description":"Kulturni center Vrhnika","lat":46.29131442980542,"lng":14.917012396262905},{"name":"Zagorje ob Savi","address":"Cesta zmage 28, Zagorje ob Savi, Slovenia","description":"Ob poštni poslovalnici","lat":46.39409190438497,"lng":13.383029678747263},{"name":"Zgornja Polskava","address":"Mariborska ulica 26, Zgornja Polskava, Slovenia","description":"Ob poštni poslovalnici","lat":46.09038124746281,"lng":14.795334974583888},{"name":"Žalec","address":"Ulica heroja Staneta 1, Žalec, Slovenia","description":"Ob poštni poslovalnici","lat":46.12143197871866,"lng":15.317395388043874},{"name":"Železniki","address":"Na Kresu 1, Železniki, Slovenia","description":"Ob poštni poslovalnici","lat":45.41891204547639,"lng":16.276339700562094},{"name":"Žiri","address":"Trg svobode 1, Žiri, Slovenia","description":"Ob poštni poslovalnici","lat":46.59150620525981,"lng":13.575644744856774},{"name":"Žirovnica","address":"Žirovnica 4, Žirovnica, Slovenia","description":"Ob poštni poslovalnici","lat":45.68640096277212,"lng":14.115534978215303}]